{
  "name" : "James L. Seward",
  "lastName" : "Seward",
  "shortName" : "Seward",
  "email" : "seward@senate.state.ny.us",
  "additionalContact" : "",
  "imageUrl" : "http://www.nysenate.gov/files/imagecache/senator_teaser/profile-pictures/2009 Sen Seward Head Shot.jpg",
  "url" : "http://www.nysenate.gov/senator/james-l-seward",
  "partyAffiliations" : [ ],
  "offices" : [ {
    "name" : "Albany Office",
    "street" : "188 State Street  ",
    "city" : "Albany",
    "postalCode" : "",
    "provinceName" : "New York",
    "province" : "NY",
    "countryName" : "United States",
    "country" : "us",
    "phone" : "518) 455-3131",
    "fax" : "",
    "otherPhone" : "",
    "additional" : "",
    "latitude" : -73.759091,
    "longitude" : 42.652855
  }, {
    "name" : "District Office",
    "street" : "41 So. Main Street",
    "city" : "Oneonta",
    "postalCode" : "",
    "provinceName" : "New York",
    "province" : "NY",
    "countryName" : "United States",
    "country" : "us",
    "phone" : "(607) 432-5524",
    "fax" : "",
    "otherPhone" : "",
    "additional" : "",
    "latitude" : -75.060446,
    "longitude" : 42.454105
  }, {
    "name" : "District Office 2",
    "street" : "235 N. Prospect Street",
    "city" : "Herkimer",
    "postalCode" : "",
    "provinceName" : "New York",
    "province" : "NY",
    "countryName" : "United States",
    "country" : "us",
    "phone" : "(315) 866-1632",
    "fax" : "",
    "otherPhone" : "",
    "additional" : "",
    "latitude" : -74.989896,
    "longitude" : 43.026787
  }, {
    "name" : "District Office 3",
    "street" : "4030 West Road",
    "city" : "Cortlandville",
    "postalCode" : "",
    "provinceName" : "New York",
    "province" : "NY",
    "countryName" : "United States",
    "country" : "us",
    "phone" : "(607) 758-9005",
    "fax" : "",
    "otherPhone" : "",
    "additional" : "",
    "latitude" : -76.201688,
    "longitude" : 42.602226
  } ],
  "district" : {
    "number" : 51,
    "url" : "http://www.nysenate.gov/district/51",
    "imageUrl" : "",
    "mapUrl" : ""
  },
  "social" : {
    "twitter" : "",
    "youtube" : "http://www.youtube.com/user/SenJimSeward",
    "myspace" : "",
    "picasa" : "",
    "flickr" : "",
    "facebook" : "http://www.facebook.com/senatorjimseward"
  }
}