{
  "name" : "Patrick M. Gallivan",
  "lastName" : "Gallivan",
  "shortName" : "Gallivan",
  "email" : "gallivan@nysenate.gov",
  "additionalContact" : "",
  "imageUrl" : "http://www.nysenate.gov/files/imagecache/senator_teaser/profile-pictures/(01-10-11) Gallivan-HS-007.jpg",
  "url" : "http://www.nysenate.gov/senator/pat-gallivan",
  "partyAffiliations" : [ ],
  "offices" : [ {
    "name" : "District Office",
    "street" : "4729 Transit Road",
    "city" : "Depew",
    "postalCode" : "",
    "provinceName" : "New York",
    "province" : "NY",
    "countryName" : "United States",
    "country" : "us",
    "phone" : "716-656-8544",
    "fax" : "716-656-8961",
    "otherPhone" : "",
    "additional" : "",
    "latitude" : -78.696932,
    "longitude" : 42.865417
  }, {
    "name" : "Albany Office",
    "street" : "947 LOB",
    "city" : "Albany",
    "postalCode" : "",
    "provinceName" : "New York",
    "province" : "NY",
    "countryName" : "United States",
    "country" : "us",
    "phone" : "518-455-3471",
    "fax" : "518-426-6949",
    "otherPhone" : "",
    "additional" : "",
    "latitude" : -73.754275,
    "longitude" : 42.649979
  }, {
    "name" : "Satellite Office",
    "street" : "143 North Main Street",
    "city" : "Warsaw",
    "postalCode" : "",
    "provinceName" : "New York",
    "province" : "NY",
    "countryName" : "United States",
    "country" : "us",
    "phone" : "585-786-5048",
    "fax" : "585-786-2187 ",
    "otherPhone" : "",
    "additional" : "",
    "latitude" : -78.133219,
    "longitude" : 42.743199
  }, {
    "name" : "Satellite Office",
    "street" : "Livingston County Government Center",
    "city" : "Geneseo",
    "postalCode" : "",
    "provinceName" : "New York",
    "province" : "NY",
    "countryName" : "United States",
    "country" : "us",
    "phone" : "585-243-6929",
    "fax" : "",
    "otherPhone" : "",
    "additional" : "",
    "latitude" : -77.816947,
    "longitude" : 42.795896
  } ],
  "district" : {
    "number" : 59,
    "url" : "http://www.nysenate.gov/district/59",
    "imageUrl" : "",
    "mapUrl" : ""
  },
  "social" : {
    "twitter" : "http://twitter.com/senatorgallivan",
    "youtube" : "http://www.youtube.com/user/senatorgallivan",
    "myspace" : "",
    "picasa" : "",
    "flickr" : "",
    "facebook" : "http://www.facebook.com/pages/Patrick-M-Gallivan/"
  }
}