{
  "name" : "Martin J. Golden",
  "lastName" : "Golden",
  "shortName" : "Golden",
  "email" : "golden@senate.state.ny.us",
  "additionalContact" : "",
  "imageUrl" : "http://www.nysenate.gov/files/imagecache/senator_teaser/profile-pictures/SD22_Golden.jpg",
  "url" : "http://www.nysenate.gov/senator/martin-j-golden",
  "partyAffiliations" : [ ],
  "offices" : [ {
    "name" : "Albany Office",
    "street" : "188 State Street ",
    "city" : "Albany",
    "postalCode" : "",
    "provinceName" : "New York",
    "province" : "NY",
    "countryName" : "United States",
    "country" : "us",
    "phone" : "(518) 455-2730",
    "fax" : "",
    "otherPhone" : "",
    "additional" : "",
    "latitude" : -73.759091,
    "longitude" : 42.652855
  }, {
    "name" : "District Office",
    "street" : "7408 5th Avenue",
    "city" : "Brooklyn",
    "postalCode" : "",
    "provinceName" : "New York",
    "province" : "NY",
    "countryName" : "United States",
    "country" : "us",
    "phone" : "(718) 238-6044",
    "fax" : "(718) 238-6170",
    "otherPhone" : "",
    "additional" : "",
    "latitude" : -74.022734,
    "longitude" : 40.630138
  }, {
    "name" : "Satellite Office",
    "street" : "3604 Quentin Road",
    "city" : "Brooklyn",
    "postalCode" : "",
    "provinceName" : "New York",
    "province" : "NY",
    "countryName" : "United States",
    "country" : "us",
    "phone" : "",
    "fax" : "",
    "otherPhone" : "",
    "additional" : "",
    "latitude" : -73.936422,
    "longitude" : 40.614592
  } ],
  "district" : {
    "number" : 22,
    "url" : "http://www.nysenate.gov/district/22",
    "imageUrl" : "",
    "mapUrl" : ""
  },
  "social" : {
    "twitter" : "http://twitter.com/senmartygolden",
    "youtube" : "",
    "myspace" : "",
    "picasa" : "",
    "flickr" : "",
    "facebook" : "http://www.facebook.com/pages/Martin-J-Golden/29214902523"
  }
}