{
  "nid" : 252726,
  "name" : "Michael Venditto",
  "lastName" : "Venditto",
  "shortName" : "Venditto",
  "email" : "Venditto@nysenate.gov",
  "additionalContact" : "<p>For press inquiries contact Marcus Povinelli at 516-882-0630 or povinell@nysenate.gov</p>",
  "imageUrl" : "http://www.nysenate.gov/files/profile-pictures/Michael_Venditto.jpg",
  "url" : "http://www.nysenate.gov/senator/michael-venditto",
  "partyAffiliations" : [ "R", "C", "IP" ],
  "offices" : [ {
    "name" : "District Office",
    "street" : "5550 Merrick Road, Suite 205",
    "city" : "Massapequa",
    "postalCode" : "11758",
    "provinceName" : "New York",
    "province" : "NY",
    "countryName" : "United States",
    "country" : "us",
    "phone" : "516-882-0630",
    "fax" : "",
    "otherPhone" : "",
    "additional" : "",
    "latitude" : 40.668893,
    "longitude" : -73.432599
  }, {
    "name" : "Albany Office",
    "street" : "Legislative Office Building,",
    "city" : "Albany",
    "postalCode" : "12247",
    "provinceName" : "New York",
    "province" : "NY",
    "countryName" : "United States",
    "country" : "us",
    "phone" : "518-455-3341",
    "fax" : "(518) 426-6823",
    "otherPhone" : "",
    "additional" : "Room 946",
    "latitude" : 42.65,
    "longitude" : -73.76
  } ],
  "district" : {
    "number" : 8,
    "url" : "http://www.nysenate.gov/district/08",
    "imageUrl" : "http://www.nysenate.gov/files/SD8.png",
    "mapUrl" : "http://geo.nysenate.gov/maps/regular.jsp?x=850&y=595&sd=08"
  },
  "social" : {
    "twitter" : "",
    "youtube" : "",
    "myspace" : "",
    "picasa" : "",
    "flickr" : "",
    "facebook" : ""
  }
}